[
    {
        "name": "Hilltop Al-Anon",
        "slug": "hilltop-alanon-Tuesday-19:00",
        "day": 2,
        "time": "19:00",
        "timezone": "America/Central",
        "location": "Grace Lutheran Church",
        "notes": "Eastside on Edwards St.",
        "region": "Sioux Falls Area",
        "url": "https://siouxfallsaa.org/meetings/hilltop-alanon",
        "types": [
            "EN",
            "AL-AN",
            "ST",
            "X"
        ],
        "approximate": false,
        "address": "3300 E 18th St",
        "city": "Sioux Falls",
        "state": "SD",
        "postal_code": "57103",
        "country": "US"
    },
    {
        "name": "Chester AA",
        "slug": "chester-Friday-20:00",
        "day": 5,
        "time": "20:00",
        "timezone": "America/Central",
        "location": "Community Center",
        "notes": "First Friday of the month is an Open Birthday Meeting",
        "region": "Sioux Falls Area",
        "url": "https://siouxfallsaa.org/meetings/chester",
        "types": [
            "EN",
            "C",
            "B",
            "X"
        ],
        "approximate": false,
        "address": "401 4th St",
        "city": "Chester",
        "state": "SD",
        "postal_code": "57016",
        "country": "US"
    },
    {
        "name": "Beresford AA",
        "slug": "beresford-Sunday-19:00",
        "day": 0,
        "time": "19:00",
        "timezone": "America/Central",
        "location": "",
        "notes": "Next to fire station\n</br >Last Monday of the month is an Open Birthday Meeting\n",
        "region": "Sioux Falls Area",
        "url": "https://siouxfallsaa.org/meetings/beresford",
        "types": [
            "EN",
            "C",
            "ST",
            "D",
            "X"
        ],
        "approximate": false,
        "address": "304 N 10th",
        "city": "Beresford",
        "state": "SD",
        "postal_code": "57004",
        "country": "US"
    },
    {
        "name": "Beresford AA",
        "slug": "beresford-Wednesday-20:00",
        "day": 3,
        "time": "20:00",
        "timezone": "America/Central",
        "location": "",
        "notes": "Next to fire station\n</br >Last Monday of the month is an Open Birthday Meeting\n",
        "region": "Sioux Falls Area",
        "url": "https://siouxfallsaa.org/meetings/beresford",
        "types": [
            "EN",
            "C",
            "ST",
            "D",
            "X"
        ],
        "approximate": false,
        "address": "304 N 10th",
        "city": "Beresford",
        "state": "SD",
        "postal_code": "57004",
        "country": "US"
    },
    {
        "name": "Southside Sunset AFG",
        "slug": "southsidesunset-Wednesday-19:00",
        "day": 3,
        "time": "19:00",
        "timezone": "America/Central",
        "location": "Southside Alano Club",
        "notes": "",
        "region": "Sioux Falls Area",
        "url": "https://siouxfallsaa.org/meetings/southsidesunset",
        "types": [
            "EN",
            "AL-AN",
            "ST",
            "X"
        ],
        "approximate": false,
        "address": "4112 South West Avenue",
        "city": "Sioux Falls",
        "state": "SD",
        "postal_code": "57105",
        "country": "US"
    },
    {
        "name": "Grateful Alcoholics",
        "slug": "gratefulalcs-Wednesday-17:30",
        "day": 3,
        "time": "17:30",
        "timezone": "America/Central",
        "location": "St. John American Lutheran Church",
        "notes": "",
        "region": "Sioux Falls Area",
        "url": "https://siouxfallsaa.org/meetings/gratefulalcs",
        "types": [
            "EN",
            "C",
            "ST",
            "X"
        ],
        "approximate": false,
        "address": "1912 West 13th Street",
        "city": "Sioux Falls",
        "state": "SD",
        "postal_code": "57104",
        "country": "US"
    },
    {
        "name": "Good Spirits AFG",
        "slug": "goodspirits-Thursday-19:00",
        "day": 4,
        "time": "19:00",
        "timezone": "America/Central",
        "location": "Holy Spirit School Library",
        "notes": "",
        "region": "Sioux Falls Area",
        "url": "https://siouxfallsaa.org/meetings/goodspirits",
        "types": [
            "EN",
            "AL-AN",
            "ST"
        ],
        "approximate": false,
        "address": "3601 E Dudley Ln",
        "city": "Sioux Falls",
        "state": "SD",
        "postal_code": "57103",
        "country": "US"
    },
    {
        "name": "Westside AA (Women)",
        "slug": "sf-westside-women-Tuesday-17:15",
        "day": 2,
        "time": "17:15",
        "timezone": "America/Central",
        "location": "Westside Alano Club",
        "notes": "",
        "region": "Sioux Falls Area",
        "url": "https://siouxfallsaa.org/meetings/sf-westside-women",
        "types": [
            "EN",
            "C",
            "B",
            "TR",
            "X",
            "W"
        ],
        "approximate": false,
        "address": "1509 West 1st Street",
        "city": "Sioux Falls",
        "state": "SD",
        "postal_code": "57104",
        "country": "US"
    },
    {
        "name": "Westside AA (Women)",
        "slug": "sf-westside-women-Wednesday-17:15",
        "day": 3,
        "time": "17:15",
        "timezone": "America/Central",
        "location": "Westside Alano Club",
        "notes": "",
        "region": "Sioux Falls Area",
        "url": "https://siouxfallsaa.org/meetings/sf-westside-women",
        "types": [
            "EN",
            "C",
            "B",
            "TR",
            "X",
            "W"
        ],
        "approximate": false,
        "address": "1509 West 1st Street",
        "city": "Sioux Falls",
        "state": "SD",
        "postal_code": "57104",
        "country": "US"
    },
    {
        "name": "Brandon 12x12",
        "slug": "brandon12x12-Monday-19:00",
        "day": 1,
        "time": "19:00",
        "timezone": "America/Central",
        "location": "",
        "notes": "Located behind the VFW (Open Birthday Meetings)\n<br /><br /><b>Zoom:</b> <a href=https://zoom.us/j/777305352>https://zoom.us/j/777305352</a>,\n<b>Meeting:</b> 777-305-352 <b>Password:</b> Br@ndon39\n<br />Last Monday of the month is an Open Birthday Meeting\n<br />Last Thursday of the month is an Open Speaker Meeting\n",
        "region": "Sioux Falls Area",
        "url": "https://siouxfallsaa.org/meetings/brandon12x12",
        "types": [
            "EN",
            "C",
            "12x12",
            "ST",
            "B",
            "D"
        ],
        "approximate": false,
        "address": "209 E Elm St",
        "city": "Brandon",
        "state": "SD",
        "postal_code": "57005",
        "country": "US"
    },
    {
        "name": "Brandon 12x12",
        "slug": "brandon12x12-Wednesday-20:00",
        "day": 3,
        "time": "20:00",
        "timezone": "America/Central",
        "location": "",
        "notes": "Located behind the VFW (Open Birthday Meetings)\n<br /><br /><b>Zoom:</b> <a href=https://zoom.us/j/777305352>https://zoom.us/j/777305352</a>,\n<b>Meeting:</b> 777-305-352 <b>Password:</b> Br@ndon39\n<br />Last Monday of the month is an Open Birthday Meeting\n<br />Last Thursday of the month is an Open Speaker Meeting\n",
        "region": "Sioux Falls Area",
        "url": "https://siouxfallsaa.org/meetings/brandon12x12",
        "types": [
            "EN",
            "C",
            "12x12",
            "ST",
            "B",
            "D"
        ],
        "approximate": false,
        "address": "209 E Elm St",
        "city": "Brandon",
        "state": "SD",
        "postal_code": "57005",
        "country": "US"
    },
    {
        "name": "Brandon 12x12",
        "slug": "brandon12x12-Thursday-20:00",
        "day": 4,
        "time": "20:00",
        "timezone": "America/Central",
        "location": "",
        "notes": "Located behind the VFW (Open Birthday Meetings)\n<br /><br /><b>Zoom:</b> <a href=https://zoom.us/j/777305352>https://zoom.us/j/777305352</a>,\n<b>Meeting:</b> 777-305-352 <b>Password:</b> Br@ndon39\n<br />Last Monday of the month is an Open Birthday Meeting\n<br />Last Thursday of the month is an Open Speaker Meeting\n",
        "region": "Sioux Falls Area",
        "url": "https://siouxfallsaa.org/meetings/brandon12x12",
        "types": [
            "EN",
            "C",
            "12x12",
            "ST",
            "B",
            "D"
        ],
        "approximate": false,
        "address": "209 E Elm St",
        "city": "Brandon",
        "state": "SD",
        "postal_code": "57005",
        "country": "US"
    },
    {
        "name": "Brandon 12x12",
        "slug": "brandon12x12-Saturday-11:00",
        "day": 6,
        "time": "11:00",
        "timezone": "America/Central",
        "location": "",
        "notes": "Located behind the VFW (Open Birthday Meetings)\n<br /><br /><b>Zoom:</b> <a href=https://zoom.us/j/777305352>https://zoom.us/j/777305352</a>,\n<b>Meeting:</b> 777-305-352 <b>Password:</b> Br@ndon39\n<br />Last Monday of the month is an Open Birthday Meeting\n<br />Last Thursday of the month is an Open Speaker Meeting\n",
        "region": "Sioux Falls Area",
        "url": "https://siouxfallsaa.org/meetings/brandon12x12",
        "types": [
            "EN",
            "C",
            "12x12",
            "ST",
            "B",
            "D"
        ],
        "approximate": false,
        "address": "209 E Elm St",
        "city": "Brandon",
        "state": "SD",
        "postal_code": "57005",
        "country": "US"
    },
    {
        "name": "Madison AA",
        "slug": "madison-Sunday-09:00",
        "day": 0,
        "time": "09:00",
        "timezone": "America/Central",
        "location": "",
        "notes": "South side of highway, near vet clinic; 1 mi west of town\n<br \\>Saturday meeting are Open\n",
        "region": "Sioux Falls Area",
        "url": "https://siouxfallsaa.org/meetings/madison",
        "types": [
            "EN",
            "C",
            "B",
            "12x12",
            "D",
            "X"
        ],
        "approximate": false,
        "address": "Hwy 34 and 453rd Ave",
        "city": "Madison",
        "state": "SD",
        "postal_code": "57042",
        "country": "US"
    },
    {
        "name": "Madison AA",
        "slug": "madison-Sunday-19:30",
        "day": 0,
        "time": "19:30",
        "timezone": "America/Central",
        "location": "",
        "notes": "South side of highway, near vet clinic; 1 mi west of town\n<br \\>Saturday meeting are Open\n",
        "region": "Sioux Falls Area",
        "url": "https://siouxfallsaa.org/meetings/madison",
        "types": [
            "EN",
            "C",
            "B",
            "12x12",
            "D",
            "X"
        ],
        "approximate": false,
        "address": "Hwy 34 and 453rd Ave",
        "city": "Madison",
        "state": "SD",
        "postal_code": "57042",
        "country": "US"
    },
    {
        "name": "Madison AA",
        "slug": "madison-Monday-20:00",
        "day": 1,
        "time": "20:00",
        "timezone": "America/Central",
        "location": "",
        "notes": "South side of highway, near vet clinic; 1 mi west of town\n<br \\>Saturday meeting are Open\n",
        "region": "Sioux Falls Area",
        "url": "https://siouxfallsaa.org/meetings/madison",
        "types": [
            "EN",
            "C",
            "B",
            "12x12",
            "D",
            "X"
        ],
        "approximate": false,
        "address": "Hwy 34 and 453rd Ave",
        "city": "Madison",
        "state": "SD",
        "postal_code": "57042",
        "country": "US"
    },
    {
        "name": "Madison AA",
        "slug": "madison-Tuesday-20:00",
        "day": 2,
        "time": "20:00",
        "timezone": "America/Central",
        "location": "",
        "notes": "South side of highway, near vet clinic; 1 mi west of town\n<br \\>Saturday meeting are Open\n",
        "region": "Sioux Falls Area",
        "url": "https://siouxfallsaa.org/meetings/madison",
        "types": [
            "EN",
            "C",
            "B",
            "12x12",
            "D",
            "X"
        ],
        "approximate": false,
        "address": "Hwy 34 and 453rd Ave",
        "city": "Madison",
        "state": "SD",
        "postal_code": "57042",
        "country": "US"
    },
    {
        "name": "Madison AA",
        "slug": "madison-Wednesday-17:30",
        "day": 3,
        "time": "17:30",
        "timezone": "America/Central",
        "location": "",
        "notes": "South side of highway, near vet clinic; 1 mi west of town\n<br \\>Saturday meeting are Open\n",
        "region": "Sioux Falls Area",
        "url": "https://siouxfallsaa.org/meetings/madison",
        "types": [
            "EN",
            "C",
            "B",
            "12x12",
            "D",
            "X"
        ],
        "approximate": false,
        "address": "Hwy 34 and 453rd Ave",
        "city": "Madison",
        "state": "SD",
        "postal_code": "57042",
        "country": "US"
    },
    {
        "name": "Madison AA",
        "slug": "madison-Thursday-20:00",
        "day": 4,
        "time": "20:00",
        "timezone": "America/Central",
        "location": "",
        "notes": "South side of highway, near vet clinic; 1 mi west of town\n<br \\>Saturday meeting are Open\n",
        "region": "Sioux Falls Area",
        "url": "https://siouxfallsaa.org/meetings/madison",
        "types": [
            "EN",
            "C",
            "B",
            "12x12",
            "D",
            "X"
        ],
        "approximate": false,
        "address": "Hwy 34 and 453rd Ave",
        "city": "Madison",
        "state": "SD",
        "postal_code": "57042",
        "country": "US"
    },
    {
        "name": "Madison AA",
        "slug": "madison-Saturday-10:00",
        "day": 6,
        "time": "10:00",
        "timezone": "America/Central",
        "location": "",
        "notes": "South side of highway, near vet clinic; 1 mi west of town\n<br \\>Saturday meeting are Open\n",
        "region": "Sioux Falls Area",
        "url": "https://siouxfallsaa.org/meetings/madison",
        "types": [
            "EN",
            "C",
            "B",
            "12x12",
            "D",
            "X"
        ],
        "approximate": false,
        "address": "Hwy 34 and 453rd Ave",
        "city": "Madison",
        "state": "SD",
        "postal_code": "57042",
        "country": "US"
    },
    {
        "name": "Madison AA",
        "slug": "madison-Saturday-20:00",
        "day": 6,
        "time": "20:00",
        "timezone": "America/Central",
        "location": "",
        "notes": "South side of highway, near vet clinic; 1 mi west of town\n<br \\>Saturday meeting are Open\n",
        "region": "Sioux Falls Area",
        "url": "https://siouxfallsaa.org/meetings/madison",
        "types": [
            "EN",
            "C",
            "B",
            "12x12",
            "D",
            "X"
        ],
        "approximate": false,
        "address": "Hwy 34 and 453rd Ave",
        "city": "Madison",
        "state": "SD",
        "postal_code": "57042",
        "country": "US"
    },
    {
        "name": "Rainbow Wildbunch AA",
        "slug": "rainbow-wildbunch-Tuesday-19:00",
        "day": 2,
        "time": "19:00",
        "timezone": "America/Central",
        "location": "Our Savior's Lutheran Church",
        "notes": "Room 103\n<br />First Saturday of the month is an Open Birthday Meeting\n",
        "region": "Sioux Falls Area",
        "url": "https://siouxfallsaa.org/meetings/rainbow-wildbunch",
        "types": [
            "EN",
            "O",
            "ST",
            "D",
            "X",
            "G"
        ],
        "approximate": false,
        "address": "909 West 33rd Street",
        "city": "Sioux Falls",
        "state": "SD",
        "postal_code": "57105",
        "country": "US"
    },
    {
        "name": "Rainbow Wildbunch AA",
        "slug": "rainbow-wildbunch-Thursday-17:30",
        "day": 4,
        "time": "17:30",
        "timezone": "America/Central",
        "location": "Our Savior's Lutheran Church",
        "notes": "Room 103\n<br />First Saturday of the month is an Open Birthday Meeting\n",
        "region": "Sioux Falls Area",
        "url": "https://siouxfallsaa.org/meetings/rainbow-wildbunch",
        "types": [
            "EN",
            "O",
            "ST",
            "D",
            "X",
            "G"
        ],
        "approximate": false,
        "address": "909 West 33rd Street",
        "city": "Sioux Falls",
        "state": "SD",
        "postal_code": "57105",
        "country": "US"
    },
    {
        "name": "Rainbow Wildbunch AA",
        "slug": "rainbow-wildbunch-Saturday-19:00",
        "day": 6,
        "time": "19:00",
        "timezone": "America/Central",
        "location": "Our Savior's Lutheran Church",
        "notes": "Room 103\n<br />First Saturday of the month is an Open Birthday Meeting\n",
        "region": "Sioux Falls Area",
        "url": "https://siouxfallsaa.org/meetings/rainbow-wildbunch",
        "types": [
            "EN",
            "O",
            "ST",
            "D",
            "X",
            "G"
        ],
        "approximate": false,
        "address": "909 West 33rd Street",
        "city": "Sioux Falls",
        "state": "SD",
        "postal_code": "57105",
        "country": "US"
    },
    {
        "name": "Men's Big Book Meeting",
        "slug": "mensbigbook-Wednesday-18:30",
        "day": 3,
        "time": "18:30",
        "timezone": "America/Central",
        "location": "All Souls Church",
        "notes": "between 26th and 33rd",
        "region": "Sioux Falls Area",
        "url": "https://siouxfallsaa.org/meetings/mensbigbook",
        "types": [
            "EN",
            "C",
            "B",
            "D"
        ],
        "approximate": false,
        "address": "2222 South Cliff Avenue",
        "city": "Sioux Falls",
        "state": "SD",
        "postal_code": "57105",
        "country": "US"
    },
    {
        "name": "Hilltop AA",
        "slug": "hilltop-Tuesday-19:00",
        "day": 2,
        "time": "19:00",
        "timezone": "America/Central",
        "location": "St Lambert's Catholic Church",
        "notes": "Enter from east door, near playground\n<br />Last Monday of the month is an Open Birthday Meeting\n",
        "region": "Sioux Falls Area",
        "url": "https://siouxfallsaa.org/meetings/hilltop",
        "types": [
            "EN",
            "C",
            "B",
            "D",
            "X"
        ],
        "approximate": false,
        "address": "1000 South Bahnson Avenue",
        "city": "Sioux Falls",
        "state": "SD",
        "postal_code": "57103",
        "country": "US"
    },
    {
        "name": "Three C's Al-Anon",
        "slug": "threecs-alanon-Sunday-16:00",
        "day": 0,
        "time": "16:00",
        "timezone": "America/Central",
        "location": "TLC Tallgrass",
        "notes": "",
        "region": "Sioux Falls Area",
        "url": "https://siouxfallsaa.org/meetings/threecs-alanon",
        "types": [
            "EN",
            "AL-AN",
            "ST"
        ],
        "approximate": false,
        "address": "27048 Tallgrass Ave",
        "city": "Sioux Falls",
        "state": "SD",
        "postal_code": "57108",
        "country": "US"
    },
    {
        "name": "Progress Not Perfection",
        "slug": "progressnotperfection-Saturday-10:00",
        "day": 6,
        "time": "10:00",
        "timezone": "America/Central",
        "location": "Resurrection Christian Church",
        "notes": "East on 10th Street; Gordon Dr is 1 blk east of Sycamore",
        "region": "Sioux Falls Area",
        "url": "https://siouxfallsaa.org/meetings/progressnotperfection",
        "types": [
            "EN",
            "O",
            "B",
            "ST",
            "D",
            "X"
        ],
        "approximate": false,
        "address": "811 South Gordon Drive",
        "city": "Sioux Falls",
        "state": "SD",
        "postal_code": "57110",
        "country": "US"
    },
    {
        "name": "Progress Not Perfection",
        "slug": "progressnotperfection-Tuesday-17:45",
        "day": 2,
        "time": "17:45",
        "timezone": "America/Central",
        "location": "Resurrection Christian Church",
        "notes": "East on 10th Street; Gordon Dr is 1 blk east of Sycamore",
        "region": "Sioux Falls Area",
        "url": "https://siouxfallsaa.org/meetings/progressnotperfection",
        "types": [
            "EN",
            "O",
            "B",
            "ST",
            "D",
            "X"
        ],
        "approximate": false,
        "address": "811 South Gordon Drive",
        "city": "Sioux Falls",
        "state": "SD",
        "postal_code": "57110",
        "country": "US"
    },
    {
        "name": "Progress Not Perfection",
        "slug": "progressnotperfection-Tuesday-19:00",
        "day": 2,
        "time": "19:00",
        "timezone": "America/Central",
        "location": "Resurrection Christian Church",
        "notes": "East on 10th Street; Gordon Dr is 1 blk east of Sycamore",
        "region": "Sioux Falls Area",
        "url": "https://siouxfallsaa.org/meetings/progressnotperfection",
        "types": [
            "EN",
            "O",
            "B",
            "ST",
            "D",
            "X"
        ],
        "approximate": false,
        "address": "811 South Gordon Drive",
        "city": "Sioux Falls",
        "state": "SD",
        "postal_code": "57110",
        "country": "US"
    },
    {
        "name": "Progress Not Perfection",
        "slug": "progressnotperfection-Thursday-11:00",
        "day": 4,
        "time": "11:00",
        "timezone": "America/Central",
        "location": "Resurrection Christian Church",
        "notes": "East on 10th Street; Gordon Dr is 1 blk east of Sycamore",
        "region": "Sioux Falls Area",
        "url": "https://siouxfallsaa.org/meetings/progressnotperfection",
        "types": [
            "EN",
            "O",
            "B",
            "ST",
            "D",
            "X"
        ],
        "approximate": false,
        "address": "811 South Gordon Drive",
        "city": "Sioux Falls",
        "state": "SD",
        "postal_code": "57110",
        "country": "US"
    },
    {
        "name": "Twelve Steps to Sobriety",
        "slug": "twelvesteps-Friday-06:30",
        "day": 5,
        "time": "06:30",
        "timezone": "America/Central",
        "location": "St. John American Lutheran Church",
        "notes": "Main floor library",
        "region": "Sioux Falls Area",
        "url": "https://siouxfallsaa.org/meetings/twelvesteps",
        "types": [
            "EN",
            "C",
            "ST",
            "X"
        ],
        "approximate": false,
        "address": "1912 West 13th Street",
        "city": "Sioux Falls",
        "state": "SD",
        "postal_code": "57104",
        "country": "US"
    },
    {
        "name": "Madison AA",
        "slug": "madisonaagrace-Sunday-17:30",
        "day": 0,
        "time": "17:30",
        "timezone": "America/Central",
        "location": "Grace Episcopal Church",
        "notes": "Behind Casey's",
        "region": "Sioux Falls Area",
        "url": "https://siouxfallsaa.org/meetings/madisonaagrace",
        "types": [
            "EN",
            "C",
            "B"
        ],
        "approximate": false,
        "address": "3rd Street Northwest",
        "city": "Madison",
        "state": "SD",
        "postal_code": "57042",
        "country": "US"
    },
    {
        "name": "Madison AA",
        "slug": "madisonaagrace-Tuesday-12:00",
        "day": 2,
        "time": "12:00",
        "timezone": "America/Central",
        "location": "Grace Episcopal Church",
        "notes": "Behind Casey's",
        "region": "Sioux Falls Area",
        "url": "https://siouxfallsaa.org/meetings/madisonaagrace",
        "types": [
            "EN",
            "C",
            "B"
        ],
        "approximate": false,
        "address": "3rd Street Northwest",
        "city": "Madison",
        "state": "SD",
        "postal_code": "57042",
        "country": "US"
    },
    {
        "name": "Madison AA",
        "slug": "madisonaagrace-Tuesday-17:30",
        "day": 2,
        "time": "17:30",
        "timezone": "America/Central",
        "location": "Grace Episcopal Church",
        "notes": "Behind Casey's",
        "region": "Sioux Falls Area",
        "url": "https://siouxfallsaa.org/meetings/madisonaagrace",
        "types": [
            "EN",
            "C",
            "B"
        ],
        "approximate": false,
        "address": "3rd Street Northwest",
        "city": "Madison",
        "state": "SD",
        "postal_code": "57042",
        "country": "US"
    },
    {
        "name": "Madison AA",
        "slug": "madisonaagrace-Wednesday-12:00",
        "day": 3,
        "time": "12:00",
        "timezone": "America/Central",
        "location": "Grace Episcopal Church",
        "notes": "Behind Casey's",
        "region": "Sioux Falls Area",
        "url": "https://siouxfallsaa.org/meetings/madisonaagrace",
        "types": [
            "EN",
            "C",
            "B"
        ],
        "approximate": false,
        "address": "3rd Street Northwest",
        "city": "Madison",
        "state": "SD",
        "postal_code": "57042",
        "country": "US"
    },
    {
        "name": "Madison AA",
        "slug": "madisonaagrace-Wednesday-17:30",
        "day": 3,
        "time": "17:30",
        "timezone": "America/Central",
        "location": "Grace Episcopal Church",
        "notes": "Behind Casey's",
        "region": "Sioux Falls Area",
        "url": "https://siouxfallsaa.org/meetings/madisonaagrace",
        "types": [
            "EN",
            "C",
            "B"
        ],
        "approximate": false,
        "address": "3rd Street Northwest",
        "city": "Madison",
        "state": "SD",
        "postal_code": "57042",
        "country": "US"
    },
    {
        "name": "Madison AA",
        "slug": "madisonaagrace-Friday-12:00",
        "day": 5,
        "time": "12:00",
        "timezone": "America/Central",
        "location": "Grace Episcopal Church",
        "notes": "Behind Casey's",
        "region": "Sioux Falls Area",
        "url": "https://siouxfallsaa.org/meetings/madisonaagrace",
        "types": [
            "EN",
            "C",
            "B"
        ],
        "approximate": false,
        "address": "3rd Street Northwest",
        "city": "Madison",
        "state": "SD",
        "postal_code": "57042",
        "country": "US"
    },
    {
        "name": "Madison AA",
        "slug": "madisonaagrace-Friday-17:30",
        "day": 5,
        "time": "17:30",
        "timezone": "America/Central",
        "location": "Grace Episcopal Church",
        "notes": "Behind Casey's",
        "region": "Sioux Falls Area",
        "url": "https://siouxfallsaa.org/meetings/madisonaagrace",
        "types": [
            "EN",
            "C",
            "B"
        ],
        "approximate": false,
        "address": "3rd Street Northwest",
        "city": "Madison",
        "state": "SD",
        "postal_code": "57042",
        "country": "US"
    },
    {
        "name": "Madison AA",
        "slug": "madisonaagrace-Thursday-12:00",
        "day": 4,
        "time": "12:00",
        "timezone": "America/Central",
        "location": "Grace Episcopal Church",
        "notes": "Behind Casey's",
        "region": "Sioux Falls Area",
        "url": "https://siouxfallsaa.org/meetings/madisonaagrace",
        "types": [
            "EN",
            "C",
            "B"
        ],
        "approximate": false,
        "address": "3rd Street Northwest",
        "city": "Madison",
        "state": "SD",
        "postal_code": "57042",
        "country": "US"
    },
    {
        "name": "Madison AA",
        "slug": "madisonaagrace-Saturday-09:00",
        "day": 6,
        "time": "09:00",
        "timezone": "America/Central",
        "location": "Grace Episcopal Church",
        "notes": "Behind Casey's",
        "region": "Sioux Falls Area",
        "url": "https://siouxfallsaa.org/meetings/madisonaagrace",
        "types": [
            "EN",
            "C",
            "B"
        ],
        "approximate": false,
        "address": "3rd Street Northwest",
        "city": "Madison",
        "state": "SD",
        "postal_code": "57042",
        "country": "US"
    },
    {
        "name": "Serenity Seekers Al-Anon",
        "slug": "serenityseekers-Sunday-18:30",
        "day": 0,
        "time": "18:30",
        "timezone": "America/Central",
        "location": "Saint Mary's Catholic Church",
        "notes": "NE Door",
        "region": "Sioux Falls Area",
        "url": "https://siouxfallsaa.org/meetings/serenityseekers",
        "types": [
            "EN",
            "AL-AN",
            "ST",
            "X"
        ],
        "approximate": false,
        "address": "2109 South 5th Avenue",
        "city": "Sioux Falls",
        "state": "SD",
        "postal_code": "57105",
        "country": "US"
    },
    {
        "name": "Southside AA",
        "slug": "sf-southside-Sunday-10:00",
        "day": 0,
        "time": "10:00",
        "timezone": "America/Central",
        "location": "Southside Alano Club",
        "notes": "SE Corner, 51st and West\n<br /><br />Spouse-Welcome Meeting: Tuesday and Thursday @ 8:00PM\n<br />Last Friday of the month is an Open Birthday Meeting at 10:00AM and 5:30PM\n",
        "region": "Sioux Falls Area",
        "url": "https://siouxfallsaa.org/meetings/sf-southside",
        "types": [
            "EN",
            "C",
            "ST",
            "D",
            "X"
        ],
        "approximate": false,
        "address": "4112 South West Avenue",
        "city": "Sioux Falls",
        "state": "SD",
        "postal_code": "57105",
        "country": "US"
    },
    {
        "name": "Southside AA",
        "slug": "sf-southside-Sunday-17:30",
        "day": 0,
        "time": "17:30",
        "timezone": "America/Central",
        "location": "Southside Alano Club",
        "notes": "SE Corner, 51st and West\n<br /><br />Spouse-Welcome Meeting: Tuesday and Thursday @ 8:00PM\n<br />Last Friday of the month is an Open Birthday Meeting at 10:00AM and 5:30PM\n",
        "region": "Sioux Falls Area",
        "url": "https://siouxfallsaa.org/meetings/sf-southside",
        "types": [
            "EN",
            "C",
            "ST",
            "D",
            "X"
        ],
        "approximate": false,
        "address": "4112 South West Avenue",
        "city": "Sioux Falls",
        "state": "SD",
        "postal_code": "57105",
        "country": "US"
    },
    {
        "name": "Southside AA",
        "slug": "sf-southside-Sunday-20:00",
        "day": 0,
        "time": "20:00",
        "timezone": "America/Central",
        "location": "Southside Alano Club",
        "notes": "SE Corner, 51st and West\n<br /><br />Spouse-Welcome Meeting: Tuesday and Thursday @ 8:00PM\n<br />Last Friday of the month is an Open Birthday Meeting at 10:00AM and 5:30PM\n",
        "region": "Sioux Falls Area",
        "url": "https://siouxfallsaa.org/meetings/sf-southside",
        "types": [
            "EN",
            "C",
            "ST",
            "D",
            "X"
        ],
        "approximate": false,
        "address": "4112 South West Avenue",
        "city": "Sioux Falls",
        "state": "SD",
        "postal_code": "57105",
        "country": "US"
    },
    {
        "name": "Southside AA",
        "slug": "sf-southside-Monday-08:00",
        "day": 1,
        "time": "08:00",
        "timezone": "America/Central",
        "location": "Southside Alano Club",
        "notes": "SE Corner, 51st and West\n<br /><br />Spouse-Welcome Meeting: Tuesday and Thursday @ 8:00PM\n<br />Last Friday of the month is an Open Birthday Meeting at 10:00AM and 5:30PM\n",
        "region": "Sioux Falls Area",
        "url": "https://siouxfallsaa.org/meetings/sf-southside",
        "types": [
            "EN",
            "C",
            "ST",
            "D",
            "X"
        ],
        "approximate": false,
        "address": "4112 South West Avenue",
        "city": "Sioux Falls",
        "state": "SD",
        "postal_code": "57105",
        "country": "US"
    },
    {
        "name": "Southside AA",
        "slug": "sf-southside-Monday-10:00",
        "day": 1,
        "time": "10:00",
        "timezone": "America/Central",
        "location": "Southside Alano Club",
        "notes": "SE Corner, 51st and West\n<br /><br />Spouse-Welcome Meeting: Tuesday and Thursday @ 8:00PM\n<br />Last Friday of the month is an Open Birthday Meeting at 10:00AM and 5:30PM\n",
        "region": "Sioux Falls Area",
        "url": "https://siouxfallsaa.org/meetings/sf-southside",
        "types": [
            "EN",
            "C",
            "ST",
            "D",
            "X"
        ],
        "approximate": false,
        "address": "4112 South West Avenue",
        "city": "Sioux Falls",
        "state": "SD",
        "postal_code": "57105",
        "country": "US"
    },
    {
        "name": "Southside AA",
        "slug": "sf-southside-Monday-17:30",
        "day": 1,
        "time": "17:30",
        "timezone": "America/Central",
        "location": "Southside Alano Club",
        "notes": "SE Corner, 51st and West\n<br /><br />Spouse-Welcome Meeting: Tuesday and Thursday @ 8:00PM\n<br />Last Friday of the month is an Open Birthday Meeting at 10:00AM and 5:30PM\n",
        "region": "Sioux Falls Area",
        "url": "https://siouxfallsaa.org/meetings/sf-southside",
        "types": [
            "EN",
            "C",
            "ST",
            "D",
            "X"
        ],
        "approximate": false,
        "address": "4112 South West Avenue",
        "city": "Sioux Falls",
        "state": "SD",
        "postal_code": "57105",
        "country": "US"
    },
    {
        "name": "Southside AA",
        "slug": "sf-southside-Monday-20:00",
        "day": 1,
        "time": "20:00",
        "timezone": "America/Central",
        "location": "Southside Alano Club",
        "notes": "SE Corner, 51st and West\n<br /><br />Spouse-Welcome Meeting: Tuesday and Thursday @ 8:00PM\n<br />Last Friday of the month is an Open Birthday Meeting at 10:00AM and 5:30PM\n",
        "region": "Sioux Falls Area",
        "url": "https://siouxfallsaa.org/meetings/sf-southside",
        "types": [
            "EN",
            "C",
            "ST",
            "D",
            "X"
        ],
        "approximate": false,
        "address": "4112 South West Avenue",
        "city": "Sioux Falls",
        "state": "SD",
        "postal_code": "57105",
        "country": "US"
    },
    {
        "name": "Southside AA",
        "slug": "sf-southside-Tuesday-10:00",
        "day": 2,
        "time": "10:00",
        "timezone": "America/Central",
        "location": "Southside Alano Club",
        "notes": "SE Corner, 51st and West\n<br /><br />Spouse-Welcome Meeting: Tuesday and Thursday @ 8:00PM\n<br />Last Friday of the month is an Open Birthday Meeting at 10:00AM and 5:30PM\n",
        "region": "Sioux Falls Area",
        "url": "https://siouxfallsaa.org/meetings/sf-southside",
        "types": [
            "EN",
            "C",
            "ST",
            "D",
            "X"
        ],
        "approximate": false,
        "address": "4112 South West Avenue",
        "city": "Sioux Falls",
        "state": "SD",
        "postal_code": "57105",
        "country": "US"
    },
    {
        "name": "Southside AA",
        "slug": "sf-southside-Tuesday-17:30",
        "day": 2,
        "time": "17:30",
        "timezone": "America/Central",
        "location": "Southside Alano Club",
        "notes": "SE Corner, 51st and West\n<br /><br />Spouse-Welcome Meeting: Tuesday and Thursday @ 8:00PM\n<br />Last Friday of the month is an Open Birthday Meeting at 10:00AM and 5:30PM\n",
        "region": "Sioux Falls Area",
        "url": "https://siouxfallsaa.org/meetings/sf-southside",
        "types": [
            "EN",
            "C",
            "ST",
            "D",
            "X"
        ],
        "approximate": false,
        "address": "4112 South West Avenue",
        "city": "Sioux Falls",
        "state": "SD",
        "postal_code": "57105",
        "country": "US"
    },
    {
        "name": "Southside AA",
        "slug": "sf-southside-Tuesday-20:00",
        "day": 2,
        "time": "20:00",
        "timezone": "America/Central",
        "location": "Southside Alano Club",
        "notes": "SE Corner, 51st and West\n<br /><br />Spouse-Welcome Meeting: Tuesday and Thursday @ 8:00PM\n<br />Last Friday of the month is an Open Birthday Meeting at 10:00AM and 5:30PM\n",
        "region": "Sioux Falls Area",
        "url": "https://siouxfallsaa.org/meetings/sf-southside",
        "types": [
            "EN",
            "C",
            "ST",
            "D",
            "X"
        ],
        "approximate": false,
        "address": "4112 South West Avenue",
        "city": "Sioux Falls",
        "state": "SD",
        "postal_code": "57105",
        "country": "US"
    },
    {
        "name": "Southside AA",
        "slug": "sf-southside-Wednesday-08:00",
        "day": 3,
        "time": "08:00",
        "timezone": "America/Central",
        "location": "Southside Alano Club",
        "notes": "SE Corner, 51st and West\n<br /><br />Spouse-Welcome Meeting: Tuesday and Thursday @ 8:00PM\n<br />Last Friday of the month is an Open Birthday Meeting at 10:00AM and 5:30PM\n",
        "region": "Sioux Falls Area",
        "url": "https://siouxfallsaa.org/meetings/sf-southside",
        "types": [
            "EN",
            "C",
            "ST",
            "D",
            "X"
        ],
        "approximate": false,
        "address": "4112 South West Avenue",
        "city": "Sioux Falls",
        "state": "SD",
        "postal_code": "57105",
        "country": "US"
    },
    {
        "name": "Southside AA",
        "slug": "sf-southside-Wednesday-10:00",
        "day": 3,
        "time": "10:00",
        "timezone": "America/Central",
        "location": "Southside Alano Club",
        "notes": "SE Corner, 51st and West\n<br /><br />Spouse-Welcome Meeting: Tuesday and Thursday @ 8:00PM\n<br />Last Friday of the month is an Open Birthday Meeting at 10:00AM and 5:30PM\n",
        "region": "Sioux Falls Area",
        "url": "https://siouxfallsaa.org/meetings/sf-southside",
        "types": [
            "EN",
            "C",
            "ST",
            "D",
            "X"
        ],
        "approximate": false,
        "address": "4112 South West Avenue",
        "city": "Sioux Falls",
        "state": "SD",
        "postal_code": "57105",
        "country": "US"
    },
    {
        "name": "Southside AA",
        "slug": "sf-southside-Wednesday-17:30",
        "day": 3,
        "time": "17:30",
        "timezone": "America/Central",
        "location": "Southside Alano Club",
        "notes": "SE Corner, 51st and West\n<br /><br />Spouse-Welcome Meeting: Tuesday and Thursday @ 8:00PM\n<br />Last Friday of the month is an Open Birthday Meeting at 10:00AM and 5:30PM\n",
        "region": "Sioux Falls Area",
        "url": "https://siouxfallsaa.org/meetings/sf-southside",
        "types": [
            "EN",
            "C",
            "ST",
            "D",
            "X"
        ],
        "approximate": false,
        "address": "4112 South West Avenue",
        "city": "Sioux Falls",
        "state": "SD",
        "postal_code": "57105",
        "country": "US"
    },
    {
        "name": "Southside AA",
        "slug": "sf-southside-Wednesday-20:00",
        "day": 3,
        "time": "20:00",
        "timezone": "America/Central",
        "location": "Southside Alano Club",
        "notes": "SE Corner, 51st and West\n<br /><br />Spouse-Welcome Meeting: Tuesday and Thursday @ 8:00PM\n<br />Last Friday of the month is an Open Birthday Meeting at 10:00AM and 5:30PM\n",
        "region": "Sioux Falls Area",
        "url": "https://siouxfallsaa.org/meetings/sf-southside",
        "types": [
            "EN",
            "C",
            "ST",
            "D",
            "X"
        ],
        "approximate": false,
        "address": "4112 South West Avenue",
        "city": "Sioux Falls",
        "state": "SD",
        "postal_code": "57105",
        "country": "US"
    },
    {
        "name": "Southside AA",
        "slug": "sf-southside-Thursday-10:00",
        "day": 4,
        "time": "10:00",
        "timezone": "America/Central",
        "location": "Southside Alano Club",
        "notes": "SE Corner, 51st and West\n<br /><br />Spouse-Welcome Meeting: Tuesday and Thursday @ 8:00PM\n<br />Last Friday of the month is an Open Birthday Meeting at 10:00AM and 5:30PM\n",
        "region": "Sioux Falls Area",
        "url": "https://siouxfallsaa.org/meetings/sf-southside",
        "types": [
            "EN",
            "C",
            "ST",
            "D",
            "X"
        ],
        "approximate": false,
        "address": "4112 South West Avenue",
        "city": "Sioux Falls",
        "state": "SD",
        "postal_code": "57105",
        "country": "US"
    },
    {
        "name": "Southside AA",
        "slug": "sf-southside-Thursday-17:30",
        "day": 4,
        "time": "17:30",
        "timezone": "America/Central",
        "location": "Southside Alano Club",
        "notes": "SE Corner, 51st and West\n<br /><br />Spouse-Welcome Meeting: Tuesday and Thursday @ 8:00PM\n<br />Last Friday of the month is an Open Birthday Meeting at 10:00AM and 5:30PM\n",
        "region": "Sioux Falls Area",
        "url": "https://siouxfallsaa.org/meetings/sf-southside",
        "types": [
            "EN",
            "C",
            "ST",
            "D",
            "X"
        ],
        "approximate": false,
        "address": "4112 South West Avenue",
        "city": "Sioux Falls",
        "state": "SD",
        "postal_code": "57105",
        "country": "US"
    },
    {
        "name": "Southside AA",
        "slug": "sf-southside-Thursday-20:00",
        "day": 4,
        "time": "20:00",
        "timezone": "America/Central",
        "location": "Southside Alano Club",
        "notes": "SE Corner, 51st and West\n<br /><br />Spouse-Welcome Meeting: Tuesday and Thursday @ 8:00PM\n<br />Last Friday of the month is an Open Birthday Meeting at 10:00AM and 5:30PM\n",
        "region": "Sioux Falls Area",
        "url": "https://siouxfallsaa.org/meetings/sf-southside",
        "types": [
            "EN",
            "C",
            "ST",
            "D",
            "X"
        ],
        "approximate": false,
        "address": "4112 South West Avenue",
        "city": "Sioux Falls",
        "state": "SD",
        "postal_code": "57105",
        "country": "US"
    },
    {
        "name": "Southside AA",
        "slug": "sf-southside-Friday-08:00",
        "day": 5,
        "time": "08:00",
        "timezone": "America/Central",
        "location": "Southside Alano Club",
        "notes": "SE Corner, 51st and West\n<br /><br />Spouse-Welcome Meeting: Tuesday and Thursday @ 8:00PM\n<br />Last Friday of the month is an Open Birthday Meeting at 10:00AM and 5:30PM\n",
        "region": "Sioux Falls Area",
        "url": "https://siouxfallsaa.org/meetings/sf-southside",
        "types": [
            "EN",
            "C",
            "ST",
            "D",
            "X"
        ],
        "approximate": false,
        "address": "4112 South West Avenue",
        "city": "Sioux Falls",
        "state": "SD",
        "postal_code": "57105",
        "country": "US"
    },
    {
        "name": "Southside AA",
        "slug": "sf-southside-Friday-10:00",
        "day": 5,
        "time": "10:00",
        "timezone": "America/Central",
        "location": "Southside Alano Club",
        "notes": "SE Corner, 51st and West\n<br /><br />Spouse-Welcome Meeting: Tuesday and Thursday @ 8:00PM\n<br />Last Friday of the month is an Open Birthday Meeting at 10:00AM and 5:30PM\n",
        "region": "Sioux Falls Area",
        "url": "https://siouxfallsaa.org/meetings/sf-southside",
        "types": [
            "EN",
            "C",
            "ST",
            "D",
            "X"
        ],
        "approximate": false,
        "address": "4112 South West Avenue",
        "city": "Sioux Falls",
        "state": "SD",
        "postal_code": "57105",
        "country": "US"
    },
    {
        "name": "Southside AA",
        "slug": "sf-southside-Friday-17:30",
        "day": 5,
        "time": "17:30",
        "timezone": "America/Central",
        "location": "Southside Alano Club",
        "notes": "SE Corner, 51st and West\n<br /><br />Spouse-Welcome Meeting: Tuesday and Thursday @ 8:00PM\n<br />Last Friday of the month is an Open Birthday Meeting at 10:00AM and 5:30PM\n",
        "region": "Sioux Falls Area",
        "url": "https://siouxfallsaa.org/meetings/sf-southside",
        "types": [
            "EN",
            "C",
            "ST",
            "D",
            "X"
        ],
        "approximate": false,
        "address": "4112 South West Avenue",
        "city": "Sioux Falls",
        "state": "SD",
        "postal_code": "57105",
        "country": "US"
    },
    {
        "name": "Southside AA",
        "slug": "sf-southside-Friday-20:00",
        "day": 5,
        "time": "20:00",
        "timezone": "America/Central",
        "location": "Southside Alano Club",
        "notes": "SE Corner, 51st and West\n<br /><br />Spouse-Welcome Meeting: Tuesday and Thursday @ 8:00PM\n<br />Last Friday of the month is an Open Birthday Meeting at 10:00AM and 5:30PM\n",
        "region": "Sioux Falls Area",
        "url": "https://siouxfallsaa.org/meetings/sf-southside",
        "types": [
            "EN",
            "C",
            "ST",
            "D",
            "X"
        ],
        "approximate": false,
        "address": "4112 South West Avenue",
        "city": "Sioux Falls",
        "state": "SD",
        "postal_code": "57105",
        "country": "US"
    },
    {
        "name": "Southside AA",
        "slug": "sf-southside-Saturday-10:00",
        "day": 6,
        "time": "10:00",
        "timezone": "America/Central",
        "location": "Southside Alano Club",
        "notes": "SE Corner, 51st and West\n<br /><br />Spouse-Welcome Meeting: Tuesday and Thursday @ 8:00PM\n<br />Last Friday of the month is an Open Birthday Meeting at 10:00AM and 5:30PM\n",
        "region": "Sioux Falls Area",
        "url": "https://siouxfallsaa.org/meetings/sf-southside",
        "types": [
            "EN",
            "C",
            "ST",
            "D",
            "X"
        ],
        "approximate": false,
        "address": "4112 South West Avenue",
        "city": "Sioux Falls",
        "state": "SD",
        "postal_code": "57105",
        "country": "US"
    },
    {
        "name": "Southside AA",
        "slug": "sf-southside-Saturday-17:30",
        "day": 6,
        "time": "17:30",
        "timezone": "America/Central",
        "location": "Southside Alano Club",
        "notes": "SE Corner, 51st and West\n<br /><br />Spouse-Welcome Meeting: Tuesday and Thursday @ 8:00PM\n<br />Last Friday of the month is an Open Birthday Meeting at 10:00AM and 5:30PM\n",
        "region": "Sioux Falls Area",
        "url": "https://siouxfallsaa.org/meetings/sf-southside",
        "types": [
            "EN",
            "C",
            "ST",
            "D",
            "X"
        ],
        "approximate": false,
        "address": "4112 South West Avenue",
        "city": "Sioux Falls",
        "state": "SD",
        "postal_code": "57105",
        "country": "US"
    },
    {
        "name": "Colman AA",
        "slug": "colman-Wednesday-20:00",
        "day": 3,
        "time": "20:00",
        "timezone": "America/Central",
        "location": "Community Building",
        "notes": "Last Wed. of the month is an Open Birthday Meeting",
        "region": "Sioux Falls Area",
        "url": "https://siouxfallsaa.org/meetings/colman",
        "types": [
            "EN",
            "C",
            "B",
            "X"
        ],
        "approximate": false,
        "address": "120 North Main Avenue",
        "city": "Colman",
        "state": "SD",
        "postal_code": "57017",
        "country": "US"
    },
    {
        "name": "Harrisburg AA",
        "slug": "harrisburg-Monday-17:30",
        "day": 1,
        "time": "17:30",
        "timezone": "America/Central",
        "location": "Harrisburg Shalom Lutheran",
        "notes": "Meeting is Open to friends and family\n<br />Last Monday of the month is an Open Birthday Meeting\n",
        "region": "Sioux Falls Area",
        "url": "https://siouxfallsaa.org/meetings/harrisburg",
        "types": [
            "EN",
            "C",
            "B",
            "D",
            "X"
        ],
        "approximate": false,
        "address": "1000 E Maple Street",
        "city": "Harrisburg",
        "state": "SD",
        "postal_code": "57032",
        "country": "US"
    },
    {
        "name": "Thirsty Evening AA",
        "slug": "thirstyevening-Thursday-19:00",
        "day": 4,
        "time": "19:00",
        "timezone": "America/Central",
        "location": "Peace Lutheran Church",
        "notes": "Third Thursday of every night is a birthday meeting.",
        "region": "Sioux Falls Area",
        "url": "https://siouxfallsaa.org/meetings/thirstyevening",
        "types": [
            "EN",
            "O",
            "B",
            "S"
        ],
        "approximate": false,
        "address": "5509 West 41st Street",
        "city": "Sioux Falls",
        "state": "SD",
        "postal_code": "57106",
        "country": "US"
    },
    {
        "name": "Recovery AA",
        "slug": "recoveryaa-Monday-17:30",
        "day": 1,
        "time": "17:30",
        "timezone": "America/Central",
        "location": "Our Savior's Lutheran Church",
        "notes": "Room 103 (upstairs)\n<br /><b>Zoom:</b> https://zoom.us/j/709980611, <b>Meeting:</b> 709980611\n<br />Last Monday OPEN Birthday\n",
        "region": "Sioux Falls Area",
        "url": "https://siouxfallsaa.org/meetings/recoveryaa",
        "types": [
            "EN",
            "C",
            "B",
            "ST",
            "X"
        ],
        "approximate": false,
        "address": "909 West 33rd Street",
        "city": "Sioux Falls",
        "state": "SD",
        "postal_code": "57105",
        "country": "US"
    },
    {
        "name": "Open Door Al-Anon",
        "slug": "opendoor-alanon-Monday-18:30",
        "day": 1,
        "time": "18:30",
        "timezone": "America/Central",
        "location": "St. Mark's Lutheran Church",
        "notes": "",
        "region": "Sioux Falls Area",
        "url": "https://siouxfallsaa.org/meetings/opendoor-alanon",
        "types": [
            "EN",
            "AL-AN",
            "ST"
        ],
        "approximate": false,
        "address": "2001 South Elmwood Avenue",
        "city": "Sioux Falls",
        "state": "SD",
        "postal_code": "57105",
        "country": "US"
    },
    {
        "name": "Sunlight of the Spirit",
        "slug": "sunlightspirit-Thursday-17:30",
        "day": 4,
        "time": "17:30",
        "timezone": "America/Central",
        "location": "Church of Saint Mary",
        "notes": "",
        "region": "Sioux Falls Area",
        "url": "https://siouxfallsaa.org/meetings/sunlightspirit",
        "types": [
            "EN",
            "C",
            "B",
            "D",
            "X"
        ],
        "approximate": false,
        "address": "2109 South 5th Avenue",
        "city": "Sioux Falls",
        "state": "SD",
        "postal_code": "57105",
        "country": "US"
    },
    {
        "name": "Saving Grace (Women)",
        "slug": "savinggracew-Monday-17:30",
        "day": 1,
        "time": "17:30",
        "timezone": "America/Central",
        "location": "Holy Cross Lutheran Church",
        "notes": "First Monday of the month is an Open Birthday Meeting",
        "region": "Sioux Falls Area",
        "url": "https://siouxfallsaa.org/meetings/savinggracew",
        "types": [
            "EN",
            "C",
            "B",
            "W"
        ],
        "approximate": false,
        "address": "1300 South Sertoma Avenue",
        "city": "Sioux Falls",
        "state": "SD",
        "postal_code": "57106",
        "country": "US"
    },
    {
        "name": "Irene AA",
        "slug": "irene-Friday-19:30",
        "day": 5,
        "time": "19:30",
        "timezone": "America/Central",
        "location": "Irene City Hall",
        "notes": "",
        "region": "Sioux Falls Area",
        "url": "https://siouxfallsaa.org/meetings/irene",
        "types": [
            "EN",
            "C",
            "B",
            "D"
        ],
        "approximate": false,
        "address": "110 S Till Ave",
        "city": "Irene",
        "state": "SD",
        "postal_code": "57037",
        "country": "US"
    },
    {
        "name": "2nd Chance AA",
        "slug": "2ndchance-Tuesday-19:00",
        "day": 2,
        "time": "19:00",
        "timezone": "America/Central",
        "location": "Community Reformed Church",
        "notes": "",
        "region": "Sioux Falls Area",
        "url": "https://siouxfallsaa.org/meetings/2ndchance",
        "types": [
            "EN",
            "C",
            "B",
            "X"
        ],
        "approximate": false,
        "address": "6800 E 41st St",
        "city": "Sioux Falls",
        "state": "SD",
        "postal_code": "57110",
        "country": "US"
    },
    {
        "name": "2nd Chance AA",
        "slug": "2ndchance-Saturday-10:00",
        "day": 6,
        "time": "10:00",
        "timezone": "America/Central",
        "location": "Community Reformed Church",
        "notes": "",
        "region": "Sioux Falls Area",
        "url": "https://siouxfallsaa.org/meetings/2ndchance",
        "types": [
            "EN",
            "C",
            "B",
            "X"
        ],
        "approximate": false,
        "address": "6800 E 41st St",
        "city": "Sioux Falls",
        "state": "SD",
        "postal_code": "57110",
        "country": "US"
    },
    {
        "name": "Westside AA",
        "slug": "sf-westside-Sunday-08:00",
        "day": 0,
        "time": "08:00",
        "timezone": "America/Central",
        "location": "Westside Alano Club",
        "notes": "Speaker Meeting 2nd Friday of the month\n<br />Last Friday of the month is an Open Birthday Meeting\n<br />Friday meetings are Open\n<br />Sunday at 7:30PM is Open\n<br />Saturday at 8:00PM is a Traditions Meeting\n",
        "region": "Sioux Falls Area",
        "url": "https://siouxfallsaa.org/meetings/sf-westside",
        "types": [
            "EN",
            "C",
            "B",
            "TR",
            "X"
        ],
        "approximate": false,
        "address": "1509 West 1st Street",
        "city": "Sioux Falls",
        "state": "SD",
        "postal_code": "57104",
        "country": "US"
    },
    {
        "name": "Westside AA",
        "slug": "sf-westside-Sunday-11:00",
        "day": 0,
        "time": "11:00",
        "timezone": "America/Central",
        "location": "Westside Alano Club",
        "notes": "Speaker Meeting 2nd Friday of the month\n<br />Last Friday of the month is an Open Birthday Meeting\n<br />Friday meetings are Open\n<br />Sunday at 7:30PM is Open\n<br />Saturday at 8:00PM is a Traditions Meeting\n",
        "region": "Sioux Falls Area",
        "url": "https://siouxfallsaa.org/meetings/sf-westside",
        "types": [
            "EN",
            "C",
            "B",
            "TR",
            "X"
        ],
        "approximate": false,
        "address": "1509 West 1st Street",
        "city": "Sioux Falls",
        "state": "SD",
        "postal_code": "57104",
        "country": "US"
    },
    {
        "name": "Westside AA",
        "slug": "sf-westside-Sunday-19:30",
        "day": 0,
        "time": "19:30",
        "timezone": "America/Central",
        "location": "Westside Alano Club",
        "notes": "Speaker Meeting 2nd Friday of the month\n<br />Last Friday of the month is an Open Birthday Meeting\n<br />Friday meetings are Open\n<br />Sunday at 7:30PM is Open\n<br />Saturday at 8:00PM is a Traditions Meeting\n",
        "region": "Sioux Falls Area",
        "url": "https://siouxfallsaa.org/meetings/sf-westside",
        "types": [
            "EN",
            "C",
            "B",
            "TR",
            "X"
        ],
        "approximate": false,
        "address": "1509 West 1st Street",
        "city": "Sioux Falls",
        "state": "SD",
        "postal_code": "57104",
        "country": "US"
    },
    {
        "name": "Westside AA",
        "slug": "sf-westside-Monday-10:00",
        "day": 1,
        "time": "10:00",
        "timezone": "America/Central",
        "location": "Westside Alano Club",
        "notes": "Speaker Meeting 2nd Friday of the month\n<br />Last Friday of the month is an Open Birthday Meeting\n<br />Friday meetings are Open\n<br />Sunday at 7:30PM is Open\n<br />Saturday at 8:00PM is a Traditions Meeting\n",
        "region": "Sioux Falls Area",
        "url": "https://siouxfallsaa.org/meetings/sf-westside",
        "types": [
            "EN",
            "C",
            "B",
            "TR",
            "X"
        ],
        "approximate": false,
        "address": "1509 West 1st Street",
        "city": "Sioux Falls",
        "state": "SD",
        "postal_code": "57104",
        "country": "US"
    },
    {
        "name": "Westside AA",
        "slug": "sf-westside-Monday-20:00",
        "day": 1,
        "time": "20:00",
        "timezone": "America/Central",
        "location": "Westside Alano Club",
        "notes": "Speaker Meeting 2nd Friday of the month\n<br />Last Friday of the month is an Open Birthday Meeting\n<br />Friday meetings are Open\n<br />Sunday at 7:30PM is Open\n<br />Saturday at 8:00PM is a Traditions Meeting\n",
        "region": "Sioux Falls Area",
        "url": "https://siouxfallsaa.org/meetings/sf-westside",
        "types": [
            "EN",
            "C",
            "B",
            "TR",
            "X"
        ],
        "approximate": false,
        "address": "1509 West 1st Street",
        "city": "Sioux Falls",
        "state": "SD",
        "postal_code": "57104",
        "country": "US"
    },
    {
        "name": "Westside AA",
        "slug": "sf-westside-Tuesday-08:00",
        "day": 2,
        "time": "08:00",
        "timezone": "America/Central",
        "location": "Westside Alano Club",
        "notes": "Speaker Meeting 2nd Friday of the month\n<br />Last Friday of the month is an Open Birthday Meeting\n<br />Friday meetings are Open\n<br />Sunday at 7:30PM is Open\n<br />Saturday at 8:00PM is a Traditions Meeting\n",
        "region": "Sioux Falls Area",
        "url": "https://siouxfallsaa.org/meetings/sf-westside",
        "types": [
            "EN",
            "C",
            "B",
            "TR",
            "X"
        ],
        "approximate": false,
        "address": "1509 West 1st Street",
        "city": "Sioux Falls",
        "state": "SD",
        "postal_code": "57104",
        "country": "US"
    },
    {
        "name": "Westside AA",
        "slug": "sf-westside-Tuesday-10:00",
        "day": 2,
        "time": "10:00",
        "timezone": "America/Central",
        "location": "Westside Alano Club",
        "notes": "Speaker Meeting 2nd Friday of the month\n<br />Last Friday of the month is an Open Birthday Meeting\n<br />Friday meetings are Open\n<br />Sunday at 7:30PM is Open\n<br />Saturday at 8:00PM is a Traditions Meeting\n",
        "region": "Sioux Falls Area",
        "url": "https://siouxfallsaa.org/meetings/sf-westside",
        "types": [
            "EN",
            "C",
            "B",
            "TR",
            "X"
        ],
        "approximate": false,
        "address": "1509 West 1st Street",
        "city": "Sioux Falls",
        "state": "SD",
        "postal_code": "57104",
        "country": "US"
    },
    {
        "name": "Westside AA",
        "slug": "sf-westside-Tuesday-20:00",
        "day": 2,
        "time": "20:00",
        "timezone": "America/Central",
        "location": "Westside Alano Club",
        "notes": "Speaker Meeting 2nd Friday of the month\n<br />Last Friday of the month is an Open Birthday Meeting\n<br />Friday meetings are Open\n<br />Sunday at 7:30PM is Open\n<br />Saturday at 8:00PM is a Traditions Meeting\n",
        "region": "Sioux Falls Area",
        "url": "https://siouxfallsaa.org/meetings/sf-westside",
        "types": [
            "EN",
            "C",
            "B",
            "TR",
            "X"
        ],
        "approximate": false,
        "address": "1509 West 1st Street",
        "city": "Sioux Falls",
        "state": "SD",
        "postal_code": "57104",
        "country": "US"
    },
    {
        "name": "Westside AA",
        "slug": "sf-westside-Wednesday-10:00",
        "day": 3,
        "time": "10:00",
        "timezone": "America/Central",
        "location": "Westside Alano Club",
        "notes": "Speaker Meeting 2nd Friday of the month\n<br />Last Friday of the month is an Open Birthday Meeting\n<br />Friday meetings are Open\n<br />Sunday at 7:30PM is Open\n<br />Saturday at 8:00PM is a Traditions Meeting\n",
        "region": "Sioux Falls Area",
        "url": "https://siouxfallsaa.org/meetings/sf-westside",
        "types": [
            "EN",
            "C",
            "B",
            "TR",
            "X"
        ],
        "approximate": false,
        "address": "1509 West 1st Street",
        "city": "Sioux Falls",
        "state": "SD",
        "postal_code": "57104",
        "country": "US"
    },
    {
        "name": "Westside AA",
        "slug": "sf-westside-Wednesday-18:30",
        "day": 3,
        "time": "18:30",
        "timezone": "America/Central",
        "location": "Westside Alano Club",
        "notes": "Speaker Meeting 2nd Friday of the month\n<br />Last Friday of the month is an Open Birthday Meeting\n<br />Friday meetings are Open\n<br />Sunday at 7:30PM is Open\n<br />Saturday at 8:00PM is a Traditions Meeting\n",
        "region": "Sioux Falls Area",
        "url": "https://siouxfallsaa.org/meetings/sf-westside",
        "types": [
            "EN",
            "C",
            "B",
            "TR",
            "X"
        ],
        "approximate": false,
        "address": "1509 West 1st Street",
        "city": "Sioux Falls",
        "state": "SD",
        "postal_code": "57104",
        "country": "US"
    },
    {
        "name": "Westside AA",
        "slug": "sf-westside-Wednesday-20:00",
        "day": 3,
        "time": "20:00",
        "timezone": "America/Central",
        "location": "Westside Alano Club",
        "notes": "Speaker Meeting 2nd Friday of the month\n<br />Last Friday of the month is an Open Birthday Meeting\n<br />Friday meetings are Open\n<br />Sunday at 7:30PM is Open\n<br />Saturday at 8:00PM is a Traditions Meeting\n",
        "region": "Sioux Falls Area",
        "url": "https://siouxfallsaa.org/meetings/sf-westside",
        "types": [
            "EN",
            "C",
            "B",
            "TR",
            "X"
        ],
        "approximate": false,
        "address": "1509 West 1st Street",
        "city": "Sioux Falls",
        "state": "SD",
        "postal_code": "57104",
        "country": "US"
    },
    {
        "name": "Westside AA",
        "slug": "sf-westside-Thursday-08:00",
        "day": 4,
        "time": "08:00",
        "timezone": "America/Central",
        "location": "Westside Alano Club",
        "notes": "Speaker Meeting 2nd Friday of the month\n<br />Last Friday of the month is an Open Birthday Meeting\n<br />Friday meetings are Open\n<br />Sunday at 7:30PM is Open\n<br />Saturday at 8:00PM is a Traditions Meeting\n",
        "region": "Sioux Falls Area",
        "url": "https://siouxfallsaa.org/meetings/sf-westside",
        "types": [
            "EN",
            "C",
            "B",
            "TR",
            "X"
        ],
        "approximate": false,
        "address": "1509 West 1st Street",
        "city": "Sioux Falls",
        "state": "SD",
        "postal_code": "57104",
        "country": "US"
    },
    {
        "name": "Westside AA",
        "slug": "sf-westside-Thursday-10:00",
        "day": 4,
        "time": "10:00",
        "timezone": "America/Central",
        "location": "Westside Alano Club",
        "notes": "Speaker Meeting 2nd Friday of the month\n<br />Last Friday of the month is an Open Birthday Meeting\n<br />Friday meetings are Open\n<br />Sunday at 7:30PM is Open\n<br />Saturday at 8:00PM is a Traditions Meeting\n",
        "region": "Sioux Falls Area",
        "url": "https://siouxfallsaa.org/meetings/sf-westside",
        "types": [
            "EN",
            "C",
            "B",
            "TR",
            "X"
        ],
        "approximate": false,
        "address": "1509 West 1st Street",
        "city": "Sioux Falls",
        "state": "SD",
        "postal_code": "57104",
        "country": "US"
    },
    {
        "name": "Westside AA",
        "slug": "sf-westside-Thursday-17:00",
        "day": 4,
        "time": "17:00",
        "timezone": "America/Central",
        "location": "Westside Alano Club",
        "notes": "Speaker Meeting 2nd Friday of the month\n<br />Last Friday of the month is an Open Birthday Meeting\n<br />Friday meetings are Open\n<br />Sunday at 7:30PM is Open\n<br />Saturday at 8:00PM is a Traditions Meeting\n",
        "region": "Sioux Falls Area",
        "url": "https://siouxfallsaa.org/meetings/sf-westside",
        "types": [
            "EN",
            "C",
            "B",
            "TR",
            "X"
        ],
        "approximate": false,
        "address": "1509 West 1st Street",
        "city": "Sioux Falls",
        "state": "SD",
        "postal_code": "57104",
        "country": "US"
    },
    {
        "name": "Westside AA",
        "slug": "sf-westside-Thursday-20:00",
        "day": 4,
        "time": "20:00",
        "timezone": "America/Central",
        "location": "Westside Alano Club",
        "notes": "Speaker Meeting 2nd Friday of the month\n<br />Last Friday of the month is an Open Birthday Meeting\n<br />Friday meetings are Open\n<br />Sunday at 7:30PM is Open\n<br />Saturday at 8:00PM is a Traditions Meeting\n",
        "region": "Sioux Falls Area",
        "url": "https://siouxfallsaa.org/meetings/sf-westside",
        "types": [
            "EN",
            "C",
            "B",
            "TR",
            "X"
        ],
        "approximate": false,
        "address": "1509 West 1st Street",
        "city": "Sioux Falls",
        "state": "SD",
        "postal_code": "57104",
        "country": "US"
    },
    {
        "name": "Westside AA",
        "slug": "sf-westside-Friday-10:00",
        "day": 5,
        "time": "10:00",
        "timezone": "America/Central",
        "location": "Westside Alano Club",
        "notes": "Speaker Meeting 2nd Friday of the month\n<br />Last Friday of the month is an Open Birthday Meeting\n<br />Friday meetings are Open\n<br />Sunday at 7:30PM is Open\n<br />Saturday at 8:00PM is a Traditions Meeting\n",
        "region": "Sioux Falls Area",
        "url": "https://siouxfallsaa.org/meetings/sf-westside",
        "types": [
            "EN",
            "C",
            "B",
            "TR",
            "X"
        ],
        "approximate": false,
        "address": "1509 West 1st Street",
        "city": "Sioux Falls",
        "state": "SD",
        "postal_code": "57104",
        "country": "US"
    },
    {
        "name": "Westside AA",
        "slug": "sf-westside-Friday-20:00",
        "day": 5,
        "time": "20:00",
        "timezone": "America/Central",
        "location": "Westside Alano Club",
        "notes": "Speaker Meeting 2nd Friday of the month\n<br />Last Friday of the month is an Open Birthday Meeting\n<br />Friday meetings are Open\n<br />Sunday at 7:30PM is Open\n<br />Saturday at 8:00PM is a Traditions Meeting\n",
        "region": "Sioux Falls Area",
        "url": "https://siouxfallsaa.org/meetings/sf-westside",
        "types": [
            "EN",
            "C",
            "B",
            "TR",
            "X"
        ],
        "approximate": false,
        "address": "1509 West 1st Street",
        "city": "Sioux Falls",
        "state": "SD",
        "postal_code": "57104",
        "country": "US"
    },
    {
        "name": "Westside AA",
        "slug": "sf-westside-Saturday-08:00",
        "day": 6,
        "time": "08:00",
        "timezone": "America/Central",
        "location": "Westside Alano Club",
        "notes": "Speaker Meeting 2nd Friday of the month\n<br />Last Friday of the month is an Open Birthday Meeting\n<br />Friday meetings are Open\n<br />Sunday at 7:30PM is Open\n<br />Saturday at 8:00PM is a Traditions Meeting\n",
        "region": "Sioux Falls Area",
        "url": "https://siouxfallsaa.org/meetings/sf-westside",
        "types": [
            "EN",
            "C",
            "B",
            "TR",
            "X"
        ],
        "approximate": false,
        "address": "1509 West 1st Street",
        "city": "Sioux Falls",
        "state": "SD",
        "postal_code": "57104",
        "country": "US"
    },
    {
        "name": "Westside AA",
        "slug": "sf-westside-Saturday-10:00",
        "day": 6,
        "time": "10:00",
        "timezone": "America/Central",
        "location": "Westside Alano Club",
        "notes": "Speaker Meeting 2nd Friday of the month\n<br />Last Friday of the month is an Open Birthday Meeting\n<br />Friday meetings are Open\n<br />Sunday at 7:30PM is Open\n<br />Saturday at 8:00PM is a Traditions Meeting\n",
        "region": "Sioux Falls Area",
        "url": "https://siouxfallsaa.org/meetings/sf-westside",
        "types": [
            "EN",
            "C",
            "B",
            "TR",
            "X"
        ],
        "approximate": false,
        "address": "1509 West 1st Street",
        "city": "Sioux Falls",
        "state": "SD",
        "postal_code": "57104",
        "country": "US"
    },
    {
        "name": "Westside AA",
        "slug": "sf-westside-Saturday-20:00",
        "day": 6,
        "time": "20:00",
        "timezone": "America/Central",
        "location": "Westside Alano Club",
        "notes": "Speaker Meeting 2nd Friday of the month\n<br />Last Friday of the month is an Open Birthday Meeting\n<br />Friday meetings are Open\n<br />Sunday at 7:30PM is Open\n<br />Saturday at 8:00PM is a Traditions Meeting\n",
        "region": "Sioux Falls Area",
        "url": "https://siouxfallsaa.org/meetings/sf-westside",
        "types": [
            "EN",
            "C",
            "B",
            "TR",
            "X"
        ],
        "approximate": false,
        "address": "1509 West 1st Street",
        "city": "Sioux Falls",
        "state": "SD",
        "postal_code": "57104",
        "country": "US"
    },
    {
        "name": "Saturday Morning AA",
        "slug": "saturdaymorningaa-Saturday-10:00",
        "day": 6,
        "time": "10:00",
        "timezone": "America/Central",
        "location": "Peace Lutheran Church",
        "notes": "Last Saturday of the month is an Open Birthday Meeting",
        "region": "Sioux Falls Area",
        "url": "https://siouxfallsaa.org/meetings/saturdaymorningaa",
        "types": [
            "EN",
            "C",
            "B",
            "D"
        ],
        "approximate": false,
        "address": "5509 West 41st Street",
        "city": "Sioux Falls",
        "state": "SD",
        "postal_code": "57106",
        "country": "US"
    },
    {
        "name": "The Treasure Map Meeting",
        "slug": "treasuremap-Thursday-19:00",
        "day": 4,
        "time": "19:00",
        "timezone": "America/Central",
        "location": "Faith Lutheran Gymnasium",
        "notes": "",
        "region": "Sioux Falls Area",
        "url": "https://siouxfallsaa.org/meetings/treasuremap",
        "types": [
            "EN",
            "O",
            "B",
            "SP",
            "X"
        ],
        "approximate": false,
        "address": "601 N Cliff Ave",
        "city": "Sioux Falls",
        "state": "SD",
        "postal_code": "57103",
        "country": "US"
    },
    {
        "name": "Bag Ladies",
        "slug": "bagladies-Wednesday-12:00",
        "day": 3,
        "time": "12:00",
        "timezone": "America/Central",
        "location": "1st United Methodist Church",
        "notes": "Welcome to bring lunch.",
        "region": "Sioux Falls Area",
        "url": "https://siouxfallsaa.org/meetings/bagladies",
        "types": [
            "EN",
            "C",
            "D",
            "X"
        ],
        "approximate": false,
        "address": "401 S Spring Ave",
        "city": "Sioux Falls",
        "state": "SD",
        "postal_code": "57104",
        "country": "US"
    },
    {
        "name": "Parker AA",
        "slug": "parker-Wednesday-20:00",
        "day": 3,
        "time": "20:00",
        "timezone": "America/Central",
        "location": "County Courthouse",
        "notes": "Behind the bank.\n</br >Last Wednesday of the month is an Open Birthday Meeting\n",
        "region": "Sioux Falls Area",
        "url": "https://siouxfallsaa.org/meetings/parker",
        "types": [
            "EN",
            "C",
            "B",
            "D"
        ],
        "approximate": false,
        "address": "400 S Main Avenue",
        "city": "Parker",
        "state": "SD",
        "postal_code": "57053",
        "country": "US"
    },
    {
        "name": "Westside Al-Anon",
        "slug": "sf-westside-alanon-Wednesday-18:30",
        "day": 3,
        "time": "18:30",
        "timezone": "America/Central",
        "location": "Westside Alano Club",
        "notes": "",
        "region": "Sioux Falls Area",
        "url": "https://siouxfallsaa.org/meetings/sf-westside-alanon",
        "types": [
            "EN",
            "AL-AN",
            "ST",
            "X"
        ],
        "approximate": false,
        "address": "1509 West 1st Street",
        "city": "Sioux Falls",
        "state": "SD",
        "postal_code": "57104",
        "country": "US"
    },
    {
        "name": "Westside Al-Anon",
        "slug": "sf-westside-alanon-Friday-17:30",
        "day": 5,
        "time": "17:30",
        "timezone": "America/Central",
        "location": "Westside Alano Club",
        "notes": "",
        "region": "Sioux Falls Area",
        "url": "https://siouxfallsaa.org/meetings/sf-westside-alanon",
        "types": [
            "EN",
            "AL-AN",
            "ST",
            "X"
        ],
        "approximate": false,
        "address": "1509 West 1st Street",
        "city": "Sioux Falls",
        "state": "SD",
        "postal_code": "57104",
        "country": "US"
    },
    {
        "name": "Serenity on Saturday Al-Anon",
        "slug": "serenitysaturday-Saturday-10:00",
        "day": 6,
        "time": "10:00",
        "timezone": "America/Central",
        "location": "Peace Lutheran Church",
        "notes": "",
        "region": "Sioux Falls Area",
        "url": "https://siouxfallsaa.org/meetings/serenitysaturday",
        "types": [
            "EN",
            "AL-AN",
            "ST",
            "X"
        ],
        "approximate": false,
        "address": "5509 W 41st St",
        "city": "Sioux Falls",
        "state": "SD",
        "postal_code": "57106",
        "country": "US"
    },
    {
        "name": "Free Spirit (Women)",
        "slug": "freespiritwomen-Tuesday-17:30",
        "day": 2,
        "time": "17:30",
        "timezone": "America/Central",
        "location": "Asbury United Methodist Church",
        "notes": "",
        "region": "Sioux Falls Area",
        "url": "https://siouxfallsaa.org/meetings/freespiritwomen",
        "types": [
            "EN",
            "C",
            "B",
            "W",
            "X"
        ],
        "approximate": false,
        "address": "2425 South Western Avenue",
        "city": "Sioux Falls",
        "state": "SD",
        "postal_code": "57105",
        "country": "US"
    },
    {
        "name": "Flandreau Al-Anon",
        "slug": "flandreau-alanon-Monday-19:30",
        "day": 1,
        "time": "19:30",
        "timezone": "America/Central",
        "location": "2nd Presbyterian Chapel",
        "notes": "",
        "region": "Sioux Falls Area",
        "url": "https://siouxfallsaa.org/meetings/flandreau-alanon",
        "types": [
            "EN",
            "AL-AN",
            "ST",
            "X"
        ],
        "approximate": false,
        "address": "101 N Prairie St",
        "city": "Flandreau",
        "state": "SD",
        "postal_code": "57028",
        "country": "US"
    },
    {
        "name": "Black Sheep AA",
        "slug": "blacksheep-Monday-20:00",
        "day": 1,
        "time": "20:00",
        "timezone": "America/Central",
        "location": "Good Shepherd Episcopal Church",
        "notes": "Last Monday of the month is an Open Birthday Meeting",
        "region": "Sioux Falls Area",
        "url": "https://siouxfallsaa.org/meetings/blacksheep",
        "types": [
            "EN",
            "C",
            "ST",
            "B"
        ],
        "approximate": false,
        "address": "2707 West 33rd Street",
        "city": "Sioux Falls",
        "state": "SD",
        "postal_code": "57105",
        "country": "US"
    },
    {
        "name": "Black Sheep AA",
        "slug": "blacksheep-Friday-20:00",
        "day": 5,
        "time": "20:00",
        "timezone": "America/Central",
        "location": "Good Shepherd Episcopal Church",
        "notes": "Last Monday of the month is an Open Birthday Meeting",
        "region": "Sioux Falls Area",
        "url": "https://siouxfallsaa.org/meetings/blacksheep",
        "types": [
            "EN",
            "C",
            "ST",
            "B"
        ],
        "approximate": false,
        "address": "2707 West 33rd Street",
        "city": "Sioux Falls",
        "state": "SD",
        "postal_code": "57105",
        "country": "US"
    }
]